[
    {
        "id": "e1d4c2f4-8c5c-4b3a-80c1-3428d77e7c5f",
        "cityName": "San Francisco",
        "latitude": 37.7749,
        "longitude": -122.4194,
        "temperature": 18.0,
        "feelsLike": 17.5,
        "temperatureMin": 16.0,
        "temperatureMax": 20.0,
        "pressure": 1015,
        "humidity": 60,
        "weatherDescription": "Clear sky",
        "windSpeed": 5.0,
        "windDirection": 250,
        "cloudsCoverage": 10,
        "queryDate": "2024-12-21T10:00:00Z"
    },
    {
        "id": "c2f5d46d-2c0b-49f5-9787-2b7bd2b3e3dc",
        "cityName": "New York",
        "latitude": 40.7128,
        "longitude": -74.0060,
        "temperature": 22.0,
        "feelsLike": 23.0,
        "temperatureMin": 21.0,
        "temperatureMax": 25.0,
        "pressure": 1010,
        "humidity": 70,
        "weatherDescription": "Cloudy",
        "windSpeed": 4.0,
        "windDirection": 180,
        "cloudsCoverage": 50,
        "queryDate": "2024-12-21T09:00:00Z"
    },
    {
        "id": "f4b2d6e8-d2f3-4c67-a8e6-b2d3e5f9a6e4",
        "cityName": "Los Angeles",
        "latitude": 34.0522,
        "longitude": -118.2437,
        "temperature": 25.0,
        "feelsLike": 24.5,
        "temperatureMin": 22.0,
        "temperatureMax": 28.0,
        "pressure": 1020,
        "humidity": 50,
        "weatherDescription": "Sunny",
        "windSpeed": 3.0,
        "windDirection": 200,
        "cloudsCoverage": 5,
        "queryDate": "2024-12-20T15:30:00Z"
    },
    {
        "id": "f2e3d4c5-a7b6-4d8f-9e1b-2c3d5f8e4a6d",
        "cityName": "London",
        "latitude": 51.5074,
        "longitude": -0.1278,
        "temperature": 12.0,
        "feelsLike": 10.5,
        "temperatureMin": 10.0,
        "temperatureMax": 14.0,
        "pressure": 1008,
        "humidity": 80,
        "weatherDescription": "Rainy",
        "windSpeed": 6.0,
        "windDirection": 270,
        "cloudsCoverage": 70,
        "queryDate": "2024-12-19T20:00:00Z"
    },
    {
        "id": "b5a6c4d8-e2f3-4b7d-9f1c-3d4e5f9a6b8d",
        "cityName": "Paris",
        "latitude": 48.8566,
        "longitude": 2.3522,
        "temperature": 8.0,
        "feelsLike": 6.0,
        "temperatureMin": 5.0,
        "temperatureMax": 10.0,
        "pressure": 1012,
        "humidity": 85,
        "weatherDescription": "Foggy",
        "windSpeed": 2.5,
        "windDirection": 90,
        "cloudsCoverage": 90,
        "queryDate": "2024-12-19T08:15:00Z"
    },
    {
        "id": "d4f5a6b7-c8e9-4d2b-1f3c-5d6e7a8b9c2f",
        "cityName": "Sydney",
        "latitude": -33.8688,
        "longitude": 151.2093,
        "temperature": 30.0,
        "feelsLike": 32.0,
        "temperatureMin": 28.0,
        "temperatureMax": 35.0,
        "pressure": 1005,
        "humidity": 70,
        "weatherDescription": "Hot",
        "windSpeed": 7.0,
        "windDirection": 180,
        "cloudsCoverage": 0,
        "queryDate": "2024-12-18T14:45:00Z"
    },
    {
        "id": "e6f7a8b9-c5d4-4b3c-2f9a-7d8e5a6b4c3d",
        "cityName": "Tokyo",
        "latitude": 35.6895,
        "longitude": 139.6917,
        "temperature": 5.0,
        "feelsLike": 3.0,
        "temperatureMin": 2.0,
        "temperatureMax": 7.0,
        "pressure": 1018,
        "humidity": 60,
        "weatherDescription": "Cold",
        "windSpeed": 3.5,
        "windDirection": 135,
        "cloudsCoverage": 20,
        "queryDate": "2024-12-18T10:00:00Z"
    }
]
